Target Name,latitude,longitude,count_GT200_soundings,count_all,SAM_success_rate
Auckland_NewZealand,-36.837498,174.769989,32.0,73.0,0.4383561643835616
Dakar_Senegal,14.75,-17.2,25.0,49.0,0.5102040816326531
DaresSalaam_Tanzania,-6.840556,39.245556,27.0,46.0,0.5869565217391305
Freetown_SierraLeone,8.451388,-13.238889,3.0,32.0,0.09375
Fuzhou_China,26.070835,119.296112,0.0,0.0,0.0
Lisbon_Portugal,38.705,-9.0375,34.0,64.0,0.53125
Medellin_Colombia,6.261389,-75.577225,1.0,6.0,0.16666666666666666
Quito_Ecuador,-0.181389,-78.506386,13.0,38.0,0.34210526315789475
Salvador_Brazil,-12.919445,-38.428059,32.0,52.0,0.6153846153846154
Abidjan_CotedIvoire,5.358333,-4.008333,5.0,54.0,0.09259259259259259
Accra_Ghana,5.65,-0.195556,13.0,52.0,0.25
Venice_Italy,45.482502,12.231944,17.0,38.0,0.4473684210526316
Curitiba_Brazil,-25.428888,-49.265278,19.0,42.0,0.4523809523809524
AddisAbaba_Ethiopia,9.018888,38.752499,34.0,50.0,0.68
Jaipur_India,26.912222,75.787224,17.0,24.0,0.7083333333333334
Christchurch_NewZealand,-43.528889,172.545837,30.0,52.0,0.5769230769230769
Kinhasa_DRCongo,-4.3375,15.300556,5.0,40.0,0.125
railroadValley,38.497,-115.6902,164.0,217.0,0.7557603686635944
calibration_Algeria4,30.04,5.59,129.0,160.0,0.80625
calibration_Niger3,21.57,7.96,136.0,162.0,0.8395061728395061
calibration_Egypt1,27.12,26.1,123.0,140.0,0.8785714285714286
calibration_Arabia5,18.88,46.76,152.0,166.0,0.9156626506024096
calibration_Algeria1,23.8,-0.4,113.0,152.0,0.743421052631579
calibration_Mauritania1,19.4,-9.3,95.0,141.0,0.6737588652482269
calibration_Libya4,28.55,23.39,102.0,108.0,0.9444444444444444
calibration_Algeria2,26.09,-1.38,63.0,81.0,0.7777777777777778
calibration_Niger1,19.67,9.81,49.0,67.0,0.7313432835820896
calibration_Mauritania2,20.85,-8.78,32.0,53.0,0.6037735849056604
val_Thessaloniki_Greece,40.63,22.97,169.0,263.0,0.6425855513307985
val_Gobabeb_Namibia,-23.56,15.04,191.0,200.0,0.955
val_Biust_Botswana,-22.59,27.12,146.0,212.0,0.6886792452830188
val_Jinja_Uganda,0.503,33.209,66.0,200.0,0.33
validation_portovelho,-8.774,-63.87,51.0,148.0,0.34459459459459457
val_Yangambi_DRC,0.81,24.48,4.0,59.0,0.06779661016949153
Flat_Desert_Test_0000,30.5,2.99,3.0,3.0,1.0
Flat_Desert_Test_0001,28.4,24.3,2.0,2.0,1.0
Flat_Desert_Test_0002,-23.99,139.85,2.0,2.0,1.0
Flat_Desert_Test_0003,30.84,10.0,1.0,1.0,1.0
Flat_Desert_Test_0004,26.13,30.86,2.0,2.0,1.0
Flat_Desert_Test_0005,-21.9,121.45,3.0,3.0,1.0
Flat_Desert_Test_0006,31.89,7.52,0.0,0.0,0.0
Flat_Desert_Test_0007,-19.31,125.75,2.0,2.0,1.0
Flat_Desert_Test_0008,31.36,-1.0,1.0,2.0,0.5
Flat_Desert_Test_0009,28.22,18.84,1.0,2.0,0.5
Flat_Desert_Test_0010,32.76,7.3,0.0,0.0,0.0
Flat_Desert_Test_0011,28.75,25.56,0.0,1.0,0.0
Flat_Desert_Test_0012,31.36,11.0,0.0,0.0,0.0
Flat_Desert_Test_0013,-22.11,122.72,7.0,9.0,0.7777777777777778
ecostress_afln,53.310312,-4.291142,0.0,0.0,0.0
ecostress_ar_slu,-33.4648,-66.4598,103.0,128.0,0.8046875
ecostress_ar_vir,-28.2395,-56.1886,71.0,119.0,0.5966386554621849
ecostress_au_asm,-22.283,133.249,143.0,178.0,0.8033707865168539
ecostress_au_cum,-33.6153,150.7236,3.0,5.0,0.6
ecostress_au_das,-14.1592,131.3881,25.0,42.0,0.5952380952380952
ecostress_au_dry,-15.2588,132.3706,40.0,61.0,0.6557377049180327
ecostress_au_how,-12.4952,131.15005,5.0,8.0,0.625
ecostress_au_lit,-13.179,130.7945,4.0,6.0,0.6666666666666666
ecostress_au_stp,-17.1508,133.3503,30.0,40.0,0.75
ecostress_au_tum,-35.6566,148.1517,50.0,76.0,0.6578947368421053
ecostress_au_wom,-37.4222,144.0944,28.0,44.0,0.6363636363636364
ecostress_au_ync,-34.9893,146.2907,52.0,73.0,0.7123287671232876
ecostress_bdog,51.530216,-1.481935,2.0,10.0,0.2
ecostress_be_lon,50.305,5.9981,16.0,18.0,0.8888888888888888
ecostress_be_vie,50.55184000000001,4.746112999999999,8.0,17.0,0.47058823529411764
ecostress_br_cmt,-13.2875,-56.0882,59.0,115.0,0.5130434782608696
ecostress_br_no,-16.616667,-56.76666700000001,78.0,149.0,0.5234899328859061
ecostress_ca_pr_emss,56.7438,-118.344,0.0,0.0,0.0
ecostress_ca_tp,42.713075,-80.431,0.0,1.0,0.0
ecostress_ch_dav,46.815333,9.855917,3.0,6.0,0.5
ecostress_ch_fru,47.115833,8.537778,3.0,6.0,0.5
ecostress_ch_lae,47.478333,8.364389,5.0,14.0,0.35714285714285715
ecostress_cr_fsc,10.4189,-85.4732,17.0,25.0,0.68
ecostress_cr_srnp_emss,10.8418,-85.6156,18.0,56.0,0.32142857142857145
ecostress_cz_bk1,49.5021,18.5369,52.0,106.0,0.49056603773584906
ecostress_de_rus,50.8659,6.4472,20.0,49.0,0.40816326530612246
ecostress_de_tha,50.96235,13.56516,13.0,20.0,0.65
ecostress_efgf,52.470474,-0.192985,0.0,0.0,0.0
ecostress_fr_fon,48.4764,2.7801,9.0,14.0,0.6428571428571429
ecostress_il_yat,31.3451,35.0519,17.0,20.0,0.85
ecostress_it_cp2,41.7043,12.3573,16.0,32.0,0.5
ecostress_it_tor,45.8444,7.5781,12.0,16.0,0.75
ecostress_ke_mak,-3.425806,38.140667,34.0,46.0,0.7391304347826086
ecostress_kr_gck,37.748333,127.162222,8.0,12.0,0.6666666666666666
ecostress_ne_waf,13.64758138,2.63368891,68.0,112.0,0.6071428571428571
ecostress_npbb,54.69600000000001,-2.388,0.0,0.0,0.0
ecostress_nz_bfm,-43.593,171.928,20.0,30.0,0.6666666666666666
ecostress_nz_kop,-37.38800000000001,175.554,14.0,31.0,0.45161290322580644
ecostress_nz_oxf,-43.2619,172.2108,53.0,106.0,0.5
ecostress_nz_sco,-37.46,175.22,75.0,151.0,0.4966887417218543
ecostress_sleg,51.207282,-2.828505,27.0,82.0,0.32926829268292684
ecostress_ssh_czo_cal,34.60811,-81.72247,25.0,40.0,0.625
ecostress_ssh_czo_shale,40.66573,-77.904076,2.0,3.0,0.6666666666666666
ecostress_us_arm,36.6058,-97.4888,3.0,5.0,0.6
ecostress_us_bar,44.0646,-71.28808000000001,28.0,77.0,0.36363636363636365
ecostress_us_bi1,38.1022,-121.5042,5.0,7.0,0.7142857142857143
ecostress_us_bsg,43.4712,-119.6909,61.0,86.0,0.7093023255813954
ecostress_us_ced,39.8379,-74.3791,3.0,5.0,0.6
ecostress_us_cf1,46.7815,-117.0821,29.0,47.0,0.6170212765957447
ecostress_us_cs1,44.103051,-89.53785500000001,5.0,10.0,0.5
ecostress_us_cz1,37.109,-119.731,8.0,12.0,0.6666666666666666
ecostress_us_cz2,37.031,-119.256,1.0,1.0,1.0
ecostress_us_hn1,46.408889,-119.275,22.0,31.0,0.7096774193548387
ecostress_us_hn2,46.688861,-119.464111,10.0,13.0,0.7692307692307693
ecostress_us_kfs,39.0561,-95.1907,15.0,26.0,0.5769230769230769
ecostress_us_kon,39.0824,-96.5603,26.0,36.0,0.7222222222222222
ecostress_us_los,46.0827,-89.9792,10.0,34.0,0.29411764705882354
ecostress_us_me2,44.4523,-121.557,77.0,113.0,0.6814159292035398
ecostress_us_men,43.07725,-89.402984,14.0,19.0,0.7368421052631579
ecostress_us_mms,39.3232,-86.4131,19.0,30.0,0.6333333333333333
ecostress_us_mrf,44.6465,-123.551,5.0,13.0,0.38461538461538464
ecostress_us_ro4,44.6781,-93.0723,10.0,13.0,0.7692307692307693
ecostress_us_rr,38.557845,-121.863457,5.0,8.0,0.625
ecostress_us_scc,33.61,-116.45,3.0,5.0,0.6
ecostress_us_scs,33.734,-117.696,4.0,4.0,1.0
ecostress_us_ses,34.3349,-106.7442,46.0,55.0,0.8363636363636363
ecostress_us_slt,39.9138,-74.596,6.0,10.0,0.6
ecostress_us_sp,36.234696,-119.924671,1.0,1.0,1.0
ecostress_us_syv,46.242,-89.3477,12.0,31.0,0.3870967741935484
ecostress_us_tx2,31.4802,-96.8827,12.0,18.0,0.6666666666666666
ecostress_us_tx5,30.5328,-96.4252,0.0,0.0,0.0
ecostress_us_tx6,27.6666,-98.2089,16.0,26.0,0.6153846153846154
ecostress_us_tx9,28.780508,-95.614367,1.0,2.0,0.5
ecostress_us_var,38.4133,-120.9507,5.0,7.0,0.7142857142857143
ecostress_us_vcm,35.8884,-106.5321,5.0,6.0,0.8333333333333334
ecostress_us_wjs,34.4255,-105.8615,15.0,17.0,0.8823529411764706
ecostress_us_wkg,31.7365,-109.9419,14.0,20.0,0.7
ecostress_us_wpp,44.1368,-123.182,42.0,80.0,0.525
ecostress_us_wwt,45.1089,-122.666,13.0,19.0,0.6842105263157895
fossil_Seoul_South_Korea,37.56826000000007,126.97783,76.0,173.0,0.4393063583815029
fossil_Guangzhou_China,23.11667000000006,113.2500000000001,55.0,139.0,0.39568345323741005
fossil_New_York_USA,40.71455000000003,-74.00713999999994,28.0,70.0,0.4
fossil_Hong_Kong_China,22.36472318200003,114.133713499,23.0,68.0,0.3382352941176471
fossil_Los_Angeles_USA,34.05349000000007,-118.24532,142.0,165.0,0.8606060606060606
fossil_Shanghai_China,31.22222000000005,121.45806,62.0,146.0,0.4246575342465753
fossil_Singapore_Singapore,1.464780000000076,103.7571100000001,23.0,151.0,0.152317880794702
fossil_Chicago_USA,41.88425000000007,-87.63244999999995,80.0,169.0,0.47337278106508873
fossil_Tokyo_Japan,35.68945633100003,139.6917160900001,14.0,32.0,0.4375
fossil_Riyadh_Saudi_Arabia,24.68218000000007,46.68719000000004,129.0,144.0,0.8958333333333334
fossil_Dubai_UAE,25.26951000000003,55.30884000000003,119.0,139.0,0.8561151079136691
fossil_Wuxi_China,31.56887000000006,120.28857,37.0,76.0,0.4868421052631579
fossil_Johannesburg_South_Africa,-26.20490999999993,28.04006000000004,31.0,39.0,0.7948717948717948
fossil_Tehran_Iran,35.69439000000006,51.42151000000007,153.0,187.0,0.8181818181818182
fossil_London_UK,51.50642000000005,-0.1272099999999341,34.0,67.0,0.5074626865671642
fossil_Benha_Egypt,30.45906000000008,31.17858000000007,42.0,47.0,0.8936170212765957
fossil_Beijing_China,39.90750000000003,116.39723,66.0,112.0,0.5892857142857143
fossil_Jakarta_Indonesia,-6.171479999999974,106.8264800000001,42.0,157.0,0.267515923566879
fossil_Al-Ahmadi_Kuwait,29.09426000000008,48.07602000000003,38.0,43.0,0.8837209302325582
fossil_Miami_USA,25.77481000000006,-80.19772999999998,100.0,151.0,0.6622516556291391
fossil_Samut_Prakan_Thailand,13.59946800439462,100.5968872263649,48.0,144.0,0.3333333333333333
fossil_Paris_France,48.85717000000005,2.341400000000021,72.0,163.0,0.44171779141104295
fossil_Dallas_USA,32.77815000000004,-96.79539999999997,5.0,12.0,0.4166666666666667
fossil_Tianjin_China,39.14222000000007,117.1766700000001,35.0,65.0,0.5384615384615384
fossil_Istanbul_Turkey,41.01384000000007,28.94966000000005,118.0,200.0,0.59
fossil_Detroit_USA,42.33168000000006,-83.04799999999994,8.0,20.0,0.4
fossil_Philadelphia_USA,39.95222000000007,-75.16217999999998,19.0,32.0,0.59375
fossil_San_Jose_USA,37.33865000000003,-121.88542,30.0,42.0,0.7142857142857143
fossil_New_Delhi_India,28.63095000000004,77.21728000000007,69.0,104.0,0.6634615384615384
fossil_Cologne_Germany,50.94167000000004,6.955160000000035,174.0,407.0,0.4275184275184275
fossil_Houston_USA,29.76058000000006,-95.36967999999996,3.0,3.0,1.0
fossil_Jeddah_Saudi_Arabia,21.48172000000005,39.18279000000007,97.0,118.0,0.8220338983050848
fossil_Washington_DC_USA,38.89037000000008,-77.03195999999997,84.0,143.0,0.5874125874125874
fossil_Osaka_Japan,34.69372590900008,135.5021619520001,30.0,68.0,0.4411764705882353
fossil_Buenos_Aires_Argentina,-34.60848999999996,-58.37343999999996,92.0,147.0,0.6258503401360545
fossil_Mexico_City_Mexico,19.43194000000005,-99.13314999999994,136.0,174.0,0.7816091954022989
fossil_Shah_Alam_Malaysia,3.091980000000035,101.4942800000001,9.0,92.0,0.09782608695652174
fossil_Taipei_Taiwan,25.03737000000007,121.5635500000001,48.0,144.0,0.3333333333333333
fossil_Phoenix_USA,33.44825000000003,-112.0758,115.0,126.0,0.9126984126984127
fossil_Wuhan_China,30.64353000000006,114.3247200000001,74.0,166.0,0.4457831325301205
fossil_Hangzhou_China,30.29365000000007,120.16142,15.0,40.0,0.375
fossil_Toronto_Canada,43.64869000000004,-79.38543999999996,80.0,190.0,0.42105263157894735
fossil_Nanjing_China,32.06167000000005,118.77778,17.0,47.0,0.3617021276595745
fossil_Shenyang_China,41.79222000000004,123.4327800000001,61.0,124.0,0.49193548387096775
fossil_Melbourne_Australia,-37.81748999999996,144.9671500000001,95.0,147.0,0.6462585034013606
fossil_Shantou_China,23.36814000000004,116.7147900000001,34.0,72.0,0.4722222222222222
fossil_Madrid_Spain,40.42028000000005,-3.705769999999973,100.0,144.0,0.6944444444444444
fossil_Kolkata_India,22.57054000000005,88.37124000000006,33.0,73.0,0.4520547945205479
fossil_Pusan_South_Korea,35.31,129.0402800000001,32.0,78.0,0.41025641025641024
fossil_Sydney_Australia,-33.86959999999993,151.2069100000001,26.0,48.0,0.5416666666666666
fossil_Xian_China,34.27050000000003,108.92512,50.0,133.0,0.37593984962406013
fossil_Chengdu_China,30.67190000000005,104.0758000000001,49.0,112.0,0.4375
fossil_Huhot_China,25.76444000000004,118.54583,15.0,41.0,0.36585365853658536
fossil_Boston_USA,42.35866000000004,-71.05673999999993,50.0,117.0,0.42735042735042733
fossil_Baotou_China,40.65222000000006,109.8222200000001,147.0,202.0,0.7277227722772277
fossil_Taiyuan_China,37.88141000000007,112.54952,36.0,61.0,0.5901639344262295
fossil_Denver_USA,39.74001000000004,-104.99202,14.0,20.0,0.7
fossil_Athens_Greece,37.97614000000004,23.73640000000006,51.0,77.0,0.6623376623376623
fossil_Atlanta_USA,33.74831000000006,-84.39110999999997,71.0,104.0,0.6826923076923077
fossil_Seattle_USA,47.60357000000005,-122.32945,119.0,290.0,0.4103448275862069
fossil_Yinchuan_China,38.46662000000003,106.2652100000001,72.0,96.0,0.75
fossil_Sao_Paulo_Brazil,-23.56286999999998,-46.65467999999998,97.0,160.0,0.60625
fossil_Berlin_Germany,52.51604000000003,13.37691000000007,0.0,0.0,0.0
fossil_Minneapolis_USA,44.97902000000005,-93.26493999999997,24.0,50.0,0.48
fossil_Zhengzhou_China,34.75778000000003,113.6486100000001,30.0,70.0,0.42857142857142855
fossil_Chongqing_China,29.56278000000003,106.55278,26.0,108.0,0.24074074074074073
fossil_Doha_Qatar,25.29502000000008,51.51907000000006,93.0,107.0,0.8691588785046729
fossil_Mumbai_India,18.94017000000002,72.83486000000005,55.0,107.0,0.514018691588785
fossil_Ad_Damman_Saudi_Arabia,26.44041000000004,50.06027000000006,43.0,48.0,0.8958333333333334
fossil_Wenzhou_China,27.99942000000004,120.66682,24.0,77.0,0.3116883116883117
fossil_Quanzhou_China,24.91197000000005,118.5805200000001,9.0,25.0,0.36
fossil_Brisbane_Australia,-27.46843999999993,153.0233400000001,113.0,181.0,0.6243093922651933
fossil_Dalian_China,38.91222000000005,121.6022200000001,48.0,149.0,0.3221476510067114
fossil_Tel_Aviv-Yafo_Israel,32.08556000000004,34.78953000000007,66.0,79.0,0.8354430379746836
fossil_Milan_Italy,45.46796000000006,9.18178000000006,69.0,103.0,0.6699029126213593
fossil_Abu_Dhabi_UAE,24.46918000000005,54.37173000000007,31.0,38.0,0.8157894736842105
fossil_Ankara_Turkey,39.92109000000005,32.85391000000004,90.0,137.0,0.656934306569343
fossil_Qingdao_China,36.09861000000006,120.3719400000001,56.0,96.0,0.5833333333333334
fossil_Nagoya_Japan,35.18142047000003,136.906683388,6.0,14.0,0.42857142857142855
fossil_Montreal_Canada,45.51240000000007,-73.55468999999994,65.0,143.0,0.45454545454545453
fossil_St_Louis_USA,38.62775000000005,-90.19955999999996,25.0,47.0,0.5319148936170213
fossil_San_Diego_USA,32.71568000000008,-117.16171,45.0,55.0,0.8181818181818182
fossil_Jinan_China,36.66833000000003,116.9972200000001,11.0,24.0,0.4583333333333333
fossil_Santiago_Chile,-33.43721999999997,-70.65001999999998,138.0,188.0,0.7340425531914894
fossil_Rotterdam_Netherlands,51.92282000000006,4.478480000000047,27.0,93.0,0.2903225806451613
fossil_Cape_Town_South_Africa,-33.91908999999998,18.42198000000008,100.0,140.0,0.7142857142857143
fossil_Hyderabad_India,17.39487000000003,78.47076000000004,55.0,107.0,0.514018691588785
fossil_Ho_Chi_Minh_City_Vietnam,10.77822000000003,106.70322,47.0,176.0,0.26704545454545453
fossil_Barcelona_Spain,41.38804000000005,2.170010000000048,65.0,100.0,0.65
fossil_Baltimore_USA,39.29058000000003,-76.60925999999995,22.0,45.0,0.4888888888888889
fossil_Changchun_China,43.88415000000003,125.3036800000001,111.0,196.0,0.5663265306122449
fossil_Almaty_Kazakhstan,43.25066000000004,76.88814000000008,149.0,223.0,0.6681614349775785
fossil_Birmingham_UK,52.47891000000004,-1.905919999999981,0.0,0.0,0.0
fossil_Hefei_China,31.86389000000003,117.28083,11.0,23.0,0.4782608695652174
fossil_Shijiazhuang_China,38.04139000000004,114.4786100000001,6.0,9.0,0.6666666666666666
fossil_Harbin_China,45.75553000000008,126.6395100000001,104.0,187.0,0.5561497326203209
fossil_Cleveland_USA,41.50473000000005,-81.69073999999995,9.0,18.0,0.5
fossil_Fremantle_Australia,-32.04731999999996,115.75351,121.0,179.0,0.6759776536312849
fossil_Durban_South_Africa,-29.84704999999997,31.02590000000004,98.0,152.0,0.6447368421052632
fossil_Las_Vegas_USA,36.17193000000003,-115.14001,16.0,16.0,1.0
fossil_Lima_Peru,-12.04317999999995,-77.02823999999998,98.0,148.0,0.6621621621621622
fossil_Mashhad_Iran,36.31559000000004,59.56796000000003,147.0,174.0,0.8448275862068966
fossil_Kansas_City_USA,39.10344000000003,-94.58310999999998,36.0,63.0,0.5714285714285714
fossil_Guiyang_China,26.57242000000008,106.69473,45.0,138.0,0.32608695652173914
fossil_Chennai_India,13.08362000000005,80.28252000000003,55.0,108.0,0.5092592592592593
fossil_Caracas_Venezuela,10.48801000000003,-66.87918999999994,64.0,154.0,0.4155844155844156
fossil_Bangalore_India,12.96685000000002,77.58742000000007,63.0,143.0,0.4405594405594406
fossil_Orlando_USA,28.53823000000006,-81.37738999999993,64.0,101.0,0.6336633663366337
fossil_Baghdad_Iraq,33.34213000000005,44.39309000000003,121.0,148.0,0.8175675675675675
fossil_Sacramento_USA,38.57944000000003,-121.49085,58.0,74.0,0.7837837837837838
fossil_Bogota_Colombia,4.614960000000053,-74.06940999999995,33.0,139.0,0.23741007194244604
fossil_Taegu_South_Korea,35.87028000000004,128.5911100000001,9.0,31.0,0.2903225806451613
fossil_Urumqi_China,43.78787000000005,87.58627000000007,109.0,173.0,0.630057803468208
fossil_Vienna_Austria,48.20263000000006,16.36842000000007,57.0,124.0,0.4596774193548387
fossil_Manila_Philippines,14.58864000000005,120.98454,53.0,153.0,0.3464052287581699
fossil_Columbus_USA,39.96199000000007,-83.00274999999993,20.0,40.0,0.5
fossil_Esfahan_Iran,32.65722000000005,51.67761000000007,93.0,106.0,0.8773584905660378
fossil_Portland_USA,45.51179000000008,-122.67563,120.0,249.0,0.4819277108433735
fossil_Indianapolis_USA,39.76691000000005,-86.14995999999996,7.0,18.0,0.3888888888888889
fossil_Zibo_China,36.79056000000003,118.0633300000001,20.0,32.0,0.625
fossil_San_Antonio_USA,29.42458000000005,-98.49460999999997,55.0,85.0,0.6470588235294118
fossil_Taejon_South_Korea,36.08139000000006,127.1897200000001,4.0,7.0,0.5714285714285714
fossil_Chifeng_China,42.27207000000004,118.9549300000001,65.0,98.0,0.6632653061224489
fossil_Hamburg_Germany,53.55375000000004,9.99183000000005,0.0,0.0,0.0
fossil_Pune_India,18.50422000000003,73.85302000000007,20.0,46.0,0.43478260869565216
fossil_Al_Ain_UAE,24.20739000000003,55.68635000000006,32.0,34.0,0.9411764705882353
fossil_Mecca_Saudi_Arabia,21.42111000000006,39.82222000000007,49.0,61.0,0.8032786885245902
fossil_Vancouver_Canada,49.26038000000005,-123.1133599999999,140.0,381.0,0.3674540682414698
fossil_Datong_Shanxi_China,40.09361000000007,113.2913900000001,13.0,21.0,0.6190476190476191
fossil_Xiamen_China,24.54404000000005,118.12774,7.0,15.0,0.4666666666666667
fossil_Ningbo_China,29.86569000000003,121.53916,5.0,10.0,0.5
fossil_Taichung_Taiwan,24.16324000000003,120.6482100000001,25.0,48.0,0.5208333333333334
fossil_Rio_de_Janeiro_Brazil,-22.91215999999997,-43.17500999999993,96.0,166.0,0.5783132530120482
fossil_St_Petersburg_USA,27.77119000000005,-82.63875999999993,23.0,43.0,0.5348837209302325
fossil_Monterrey_Mexico,25.67093000000006,-100.30999,97.0,125.0,0.776
fossil_Hanoi_Vietnam,21.02888000000007,105.8546400000001,37.0,132.0,0.2803030303030303
fossil_Rome_Italy,41.90322000000003,12.49565000000007,140.0,209.0,0.6698564593301436
fossil_New_Orleans_USA,29.95370000000003,-90.07774999999998,9.0,18.0,0.5
fossil_Al_Hofuf_Saudi_Arabia,25.36824000000007,49.58751000000007,35.0,39.0,0.8974358974358975
fossil_Chios_Turkey,40.19208000000003,29.04675000000003,60.0,80.0,0.75
fossil_Naples_Italy,40.84014000000008,14.25226000000004,52.0,86.0,0.6046511627906976
fossil_Guadalajara_Mexico,20.68758000000003,-103.35104,85.0,116.0,0.7327586206896551
fossil_Kaoshsiung_Taiwan,22.62014000000005,120.31226,22.0,45.0,0.4888888888888889
fossil_Dhaka_Bangladesh,23.71323000000007,90.39957000000004,29.0,82.0,0.35365853658536583
fossil_Calgary_Canada,51.04532000000006,-114.06301,148.0,272.0,0.5441176470588235
fossil_Pittsburgh_USA,40.43851000000006,-79.99733999999995,16.0,41.0,0.3902439024390244
fossil_Austin_USA,30.26759000000004,-97.74298999999996,1.0,1.0,1.0
fossil_Amman_Jordan,31.95180000000005,35.94042000000007,52.0,60.0,0.8666666666666667
fossil_Salt_Lake_City_USA,40.76031000000006,-111.88822,55.0,78.0,0.7051282051282052
fossil_Medina_Saudi_Arabia,24.46728000000007,39.60641000000004,107.0,126.0,0.8492063492063492
fossil_Adelaide_Australia,-34.92584999999997,138.5998000000001,93.0,158.0,0.5886075949367089
fossil_Warsaw_Poland,52.23560000000003,21.01037000000002,1.0,2.0,0.5
fossil_Omsk_Russia,54.99471000000005,73.36476000000005,0.0,0.0,0.0
fossil_Astana_Kazakhstan,51.12771000000004,71.42830000000004,140.0,241.0,0.5809128630705395
fossil_Maebashi_Japan,36.38949739100008,139.0634184300001,5.0,11.0,0.45454545454545453
fossil_Tabriz_Iran,38.08000000000004,46.29190000000006,103.0,134.0,0.7686567164179104
fossil_Ahmadabad_India,23.02777000000003,72.60025000000007,63.0,93.0,0.6774193548387096
fossil_Sohag_Egypt,26.55513000000008,31.69545000000005,113.0,115.0,0.9826086956521739
fossil_Munich_Germany,48.13641000000007,11.57754000000006,83.0,190.0,0.4368421052631579
fossil_Ahvaz_Iran,31.32030000000003,48.66930000000008,46.0,64.0,0.71875
fossil_Baabda_Lebanon,34.51451000000003,35.96785000000006,59.0,72.0,0.8194444444444444
fossil_Rostov-on-Don_Russia,47.22691000000003,39.71676000000008,166.0,321.0,0.5171339563862928
fossil_Prague_Czech_Republic,50.07913000000008,14.43302000000006,40.0,97.0,0.41237113402061853
fossil_San_Cristobal_Dominican_Republic,18.41667000000007,-70.09999999999997,108.0,161.0,0.6708074534161491
fossil_Amsterdam_Netherlands,52.36993000000007,4.907880000000034,0.0,0.0,0.0
fossil_Bucharest_Romania,44.43429000000003,26.10298000000006,108.0,189.0,0.5714285714285714
fossil_Maracaibo_Venezuela,10.68769000000003,-71.59756999999996,66.0,123.0,0.5365853658536586
fossil_Lahore_Pakistan,31.54972000000004,74.34361000000007,59.0,84.0,0.7023809523809523
fossil_Budapest_Hungary,47.49972000000008,19.05508000000003,106.0,175.0,0.6057142857142858
fossil_Ashgabat_Turkmenistan,37.95000000000005,58.38333000000006,107.0,127.0,0.84251968503937
fossil_Brussels_Belgium,50.84439000000003,4.356090000000052,25.0,37.0,0.6756756756756757
fossil_Katowice_Poland,50.25641000000007,19.03105000000005,140.0,316.0,0.4430379746835443
fossil_Kuybyskev_Russia,53.20006000000006,50.15000000000003,0.0,0.0,0.0
fossil_Karachi_Pakistan,24.90560000000005,67.08220000000006,58.0,85.0,0.6823529411764706
fossil_Lagos_Nigeria,6.454710000000034,3.388760000000048,22.0,147.0,0.14965986394557823
fossil_Luanda_Angola,-8.81565999999998,13.23288000000002,44.0,140.0,0.3142857142857143
fossil_Peshawar_Pakistan,34.00800000000004,71.57849000000004,82.0,113.0,0.7256637168141593
fossil_Khartoum_Sudan,15.5007,32.5599,110.0,133.0,0.8270676691729323
fossil_Nairobi_Kenya,-1.2921,36.8219,90.0,146.0,0.6164383561643836
fossil_Miller_Power_Plant_USA,33.64,-87.12,23.0,44.0,0.5227272727272727
fossil_Tutuka_and_Majuba_Powerplant,-26.95,29.56,40.0,53.0,0.7547169811320755
fossil_Janschwalde_Germany,51.62,14.5,16.0,29.0,0.5517241379310345
fossil_Colstrip_powerplant,45.8816,-106.611,108.0,194.0,0.5567010309278351
fossil_Monroe_powerplant,41.895,-83.342,2.0,5.0,0.4
fossil_Comanche_powerplant,38.2,-104.579787,133.0,169.0,0.7869822485207101
fossil_Sammis_Cardinal_Mansfield_powerplants,40.415,-80.56,5.0,7.0,0.7142857142857143
fossil_Keystone_HomerCity_Conemaugh_Powerplants,40.513,-79.194,5.0,12.0,0.4166666666666667
fossil_Bowen_powerplant,34.124,-84.922,4.0,12.0,0.3333333333333333
fossil_Scherer_powerplant,33.061,-83.81,37.0,65.0,0.5692307692307692
fossil_Boundary_Dam_powerplant,49.09606,-103.0305,122.0,203.0,0.6009852216748769
fossil_Sheerness_powerplant,51.5317,-111.7861,81.0,113.0,0.7168141592920354
fossil_Dofasco_powerplant,43.2597,-79.8111,4.0,9.0,0.4444444444444444
fossil_Belchatow_powerplant,51.268,19.331,124.0,241.0,0.5145228215767634
fossil_Dangjin_Yonghungdo_Taean_powerplants,37.057,126.511,2.0,6.0,0.3333333333333333
fossil_Shaiba_powerplant,20.66267,39.5551,18.0,21.0,0.8571428571428571
fossil_AlQurayyah_powerplant,25.844,50.126,8.0,10.0,0.8
fossil_Arnot_Duvha_Hendrina_powerplants,-26.0331,29.611,6.0,11.0,0.5454545454545454
fossil_Duvha_Kendal_Kriel_Matla_powerplants,-25.878083,29.175447,40.0,48.0,0.8333333333333334
fossil_Vindhyachal_Sasan_Singrauli_Rihand_powerplants,24.09722,82.67361,52.0,86.0,0.6046511627906976
fossil_Pingwei_Tianji_Bengbu_Fengtai_Luohe_powerplants,32.68613,116.9005,2.0,5.0,0.4
fossil_Hazelwood_Yallourn_Loy_Yang_powerplants,-38.2636,146.395,24.0,43.0,0.5581395348837209
fossil_Stanwell_powerplant,-23.5106,150.3185,67.0,95.0,0.7052631578947368
fossil_San_Francisco_USA,37.73865000000003,-122.18542,61.0,83.0,0.7349397590361446
fossil_Wagner_powerplant,39.1781,-76.5268,9.0,19.0,0.47368421052631576
fossil_Dickerson_powerplant,39.2097,-77.4644,6.0,11.0,0.5454545454545454
fossil_Joliet_powerplant,41.4946,-88.1238,11.0,22.0,0.5
fossil_Somerset_Operating_powerplant,43.3589,-78.6047,7.0,24.0,0.2916666666666667
fossil_Will_County_powerplant,41.6334,-88.0629,5.0,10.0,0.5
fossil_Hammond_powerplant,34.2528,-85.3456,12.0,23.0,0.5217391304347826
fossil_Avon Lake_powerplant,41.5045,-82.0546,5.0,13.0,0.38461538461538464
fossil_North_Valmy_powerplant,40.8813,-117.1516,16.0,19.0,0.8421052631578947
fossil_Meramec_powerplant,38.4017,-90.3358,10.0,15.0,0.6666666666666666
fossil_GG_Allen_powerplant,35.1897,-81.0122,9.0,18.0,0.5
fossil_Datang_Tuoketuo_powerplant,40.1947,111.3589,54.0,73.0,0.7397260273972602
fossil_Waigaoqiao_powerplant,31.3536,121.6003,3.0,16.0,0.1875
fossil_Niederaussem_powerplant,50.993,6.6685,4.0,11.0,0.36363636363636365
fossil_Mundra_Umpp_powerplant,22.8158,69.5281,70.0,108.0,0.6481481481481481
fossil_Rihand_powerplant,24.026999999999997,82.7915,46.0,82.0,0.5609756097560976
fossil_Sasan_powerplant,23.9784,82.6275,6.0,9.0,0.6666666666666666
fossil_PLTU_Paiton_powerplant,-7.7184,113.5827,43.0,116.0,0.3706896551724138
fossil_Hekinan_powerplant,34.8352,136.9609,42.0,109.0,0.3853211009174312
fossil_Kendal_powerplant,-26.088,28.9689,50.0,60.0,0.8333333333333334
fossil_Korba_powerplant,22.397,82.692,25.0,42.0,0.5952380952380952
fossil_Tropomi_2_powerplant,35.502,129.303,19.0,35.0,0.5428571428571428
fossil_Az_Zour_powerplant,28.696,48.334,73.0,92.0,0.7934782608695652
fossil_Gwangyang_powerplant,34.93,127.723,1.0,3.0,0.3333333333333333
fossil_Labadie_powerplant,38.561779,-90.83605,80.0,133.0,0.6015037593984962
fossil_Cumberland_powerplant,36.391131,-87.654117,14.0,43.0,0.32558139534883723
fossil_Spurlock_powerplant,38.699024,-83.816281,44.0,82.0,0.5365853658536586
fossil_Dry_Fork_Station_powerplant,44.388606,-105.462214,111.0,174.0,0.6379310344827587
fossil_Poplar_River_powerplant,49.0569,-105.4825,126.0,209.0,0.6028708133971292
fossil_Algoma_Steel,46.523,-84.374,25.0,60.0,0.4166666666666667
fossil_Lepetsk_Russia,52.55,39.65,0.0,0.0,0.0
fossil_Intermountain_powerplant,39.511,-112.58,2.0,4.0,0.5
fossil_Cairo_Egypt,30.0788,31.2804,95.0,100.0,0.95
fossil_Houston_GeoCarb_USA,29.70956,-95.267275,13.0,18.0,0.7222222222222222
fossil_Timmins_Canada,48.57,-81.375,7.0,19.0,0.3684210526315789
fossil_Xinjiang_Shenhuo_powerplants,44.878326,89.035019,83.0,114.0,0.7280701754385965
Stratos_TX,31.921,-102.7481,6.0,8.0,0.75
Irving_Oil_Refinery_Canada,45.2838,-66.012,26.0,67.0,0.3880597014925373
Lingan_Powerplant_Canada,46.2355,-60.039,22.0,65.0,0.3384615384615385
fossil_Fos_sur_Mer_France,43.437733,4.945508,15.0,23.0,0.6521739130434783
fossil_GansuJiuSteel_China,39.813801,98.256401,30.0,48.0,0.625
fossil_marcellus_sw_mageq_USA,39.648602,-80.597198,9.0,23.0,0.391304347826087
fossil_pocahantas3_vs16_mageq_USA,37.233898,81.8508,2.0,4.0,0.5
fossil_memphis_datacenter_USA,35.073101,-90.042801,15.0,18.0,0.8333333333333334
fossil_Chandigarh_India,30.74,76.76,14.0,16.0,0.875
fossil_Ludhiana_India,30.91,75.85,3.0,3.0,1.0
fossil_Agra_India,27.18,78.0,2.0,4.0,0.5
fossil_Lucknow_India,26.85,80.95,3.0,6.0,0.5
fossil_Kanpur_India,26.45,80.33,0.0,0.0,0.0
fossil_Prayagraj_India,25.47,81.88,5.0,5.0,1.0
fossil_Patna_India,25.61,85.16,0.0,0.0,0.0
fossil_Tokyo_FC_Japan,35.462502,139.977005,1.0,5.0,0.2
fossil_Casablanca_Morocco,33.5,-7.5,2.0,6.0,0.3333333333333333
sif_ATTO_Tower_Manaus_Brazil,2.1459,-59.0056,13.0,75.0,0.17333333333333334
sif_ATTO_Tower_Manaus_Brazil_correct,-2.1457,-59.0048,18.0,126.0,0.14285714285714285
sif_Barro_Colorado_Panama,9.1543,-79.8461,11.0,62.0,0.1774193548387097
sif_cazri_Jodhpur_India,26.253803,72.995392,13.0,15.0,0.8666666666666667
sif_Guanika_Peurto_Rico,17.97,-66.870003,36.0,72.0,0.5
sif_Holcomb_Kansas_USA,38.100327,-100.970551,0.0,1.0,0.0
sif_Harvard_Forest_USA,42.5378,-72.1715,12.0,33.0,0.36363636363636365
sif_Jurong_Korea,31.8068,119.2173,0.0,4.0,0.0
sif_k34_Brazil,-2.609,-60.209099,4.0,34.0,0.11764705882352941
sif_k67_Brazil,-2.857,-54.959,26.0,76.0,0.34210526315789475
sif_Lambir_Malaysia,4.1865,114.016998,6.0,65.0,0.09230769230769231
sif_La_Selva_Costa_Rica,10.4333,-84.0211,21.0,65.0,0.3230769230769231
sif_Mead_Cluster_USA,41.1649,-96.455,45.0,79.0,0.569620253164557
sif_Pinyon_Juniper_USA,35.4385,-106.2377,62.0,72.0,0.8611111111111112
sif_Ozark_USA,38.7441,-92.2,7.0,11.0,0.6363636363636364
sif_Northern_Green_Mountains_Vermont_USA,44.447582,-72.786575,14.0,32.0,0.4375
sif_Niwot_Ridge_Colorado_USA,40.0329,-105.5464,15.0,24.0,0.625
sif_obs,53.9872,105.1178,0.0,0.0,0.0
sif_KAEFS_USA,34.9846,-97.5223,9.0,14.0,0.6428571428571429
sif_Pasoh_Malaysia,2.982,102.313004,6.0,36.0,0.16666666666666666
sif_Santa_Rita_Cluster_USA,31.8214,-110.84,59.0,67.0,0.8805970149253731
sif_shq,34.5203,115.5894,3.0,6.0,0.5
sif_University_of_Michigan_USA,45.5598,-84.7138,36.0,89.0,0.4044943820224719
sif_University_of_Virginia_USA,37.9229,-78.2739,28.0,46.0,0.6086956521739131
val_anmyeondoKo,36.62410999999999,126.37289,8.0,21.0,0.38095238095238093
val_ascensionIsland,-7.9473,-14.3873,15.0,19.0,0.7894736842105263
val_drydenCA,34.958,-117.882,49.0,54.0,0.9074074074074074
val_bremenDe,53.1037,8.84951,0.0,1.0,0.0
val_burgosPh,18.53249979,120.6494991,41.0,115.0,0.3565217391304348
val_caltechCA,34.1231,-118.0729,35.0,47.0,0.7446808510638298
val_darwinAu,-12.375,130.9167,83.0,196.0,0.42346938775510207
val_izanaTenerifeEs,28.29701,-16.518,158.0,198.0,0.797979797979798
val_karlsruheDe,49.1,8.43801,79.0,179.0,0.441340782122905
val_lamontOK,36.6039,-97.4855,145.0,229.0,0.6331877729257642
val_lauderNz,-45.0022,169.6853,205.0,337.0,0.6083086053412463
val_orleansFr,47.965,2.1125,60.0,121.0,0.49586776859504134
val_parisFr,48.846,2.356,73.0,178.0,0.4101123595505618
val_parkFallsWI,45.9448,-90.2725,130.0,332.0,0.39156626506024095
val_reunionIsland,-20.901,55.485,41.0,71.0,0.5774647887323944
val_rikubetsuJp,43.45180999999999,143.6997,63.0,176.0,0.35795454545454547
val_sagaJp,33.2411,130.2882,83.0,209.0,0.39712918660287083
val_tsukubaJp,36.0513,140.1215,95.0,209.0,0.45454545454545453
val_wollongongAu,-34.4506,150.8545,132.0,241.0,0.5477178423236515
val_cyprus,35.04,33.06,176.0,229.0,0.7685589519650655
val_Xianghe_China,39.8,116.96,55.0,97.0,0.5670103092783505
val_Calakmul_Mexico,18.6,-89.4,33.0,67.0,0.4925373134328358
val_Harwell_UK,51.57,-1.35,10.0,50.0,0.2
campaign_texmex_corpus_christi,27.809016,-97.405904,21.0,30.0,0.7
campaign_texmex_freeport,29.004259,-95.409948,4.0,7.0,0.5714285714285714
campaign_texmex_port_arthur,29.953892,-93.988229,3.0,12.0,0.25
campaign_texmex_lake_charles,30.125402,-93.316006,3.0,5.0,0.6
campaign_texmex_harrington_station,35.298973,-101.739486,62.0,69.0,0.8985507246376812
campaign_texmex_fayette_station,29.908693,-96.752407,2.0,5.0,0.4
campaign_texmex_WA_parish_station,29.492793,-95.683079,18.0,35.0,0.5142857142857142
campaign_texmex_limestone_big_brown_stations,31.594193,-96.144985,17.0,27.0,0.6296296296296297
campaign_texmex_martin_lake_pirkey_stations,32.34324,-94.532219,7.0,12.0,0.5833333333333334
campaign_texmex_baton_rouge,30.30348,-91.172076,83.0,152.0,0.5460526315789473
campaign_texmex_fort_worth,32.740462,-97.410847,66.0,83.0,0.7951807228915663
campaign_texmex_amarillo_south01,34.502617,-102.909702,0.0,0.0,0.0
campaign_texmex_amarillo_south02,34.673764,-102.435868,0.0,0.0,0.0
campaign_texmex_amarillo_north01,36.112778,-102.595969,0.0,0.0,0.0
campaign_texmex_amarillo_north02,36.10232,-102.131864,1.0,1.0,1.0
campaign_texmex_permian01b,32.72488,-104.277874,0.0,0.0,0.0
campaign_texmex_permian01c,32.160132,-103.851187,0.0,0.0,0.0
campaign_texmex_permian01d,31.564529,-103.36037,1.0,1.0,1.0
campaign_texmex_permian01e,31.218347,-103.149268,0.0,0.0,0.0
campaign_texmex_permian02b,33.001347,-102.197474,1.0,1.0,1.0
campaign_texmex_permian02c,32.314015,-102.010295,0.0,0.0,0.0
campaign_texmex_permian02d,31.605376,-101.799985,0.0,0.0,0.0
campaign_texmex_oakgrove_powerplant,31.185,-96.4853,69.0,111.0,0.6216216216216216
campaign_texmex_hunters_powerplant,39.1747,-111.0289,111.0,138.0,0.8043478260869565
campaign_texmex_brame_powerplant,31.395,-92.716,50.0,85.0,0.5882352941176471
campaign_texmex_sanjuan_powerplant,36.80089,-108.441736,55.0,65.0,0.8461538461538461
campaign_texmex_craig_powerplant,40.4627,-107.5912,37.0,56.0,0.6607142857142857
validation_eastern_colorado,39.9122,-104.2423,25.0,35.0,0.7142857142857143
val_Toulouse_France,43.562153,1.497266,49.0,77.0,0.6363636363636364
val_Tokyo_Atacama_Observatory,-22.98678,-67.74194,5.0,5.0,1.0
val_Kolkata_Vertex70_site,22.963,88.5242,29.0,75.0,0.38666666666666666
val_salar_de_Uyuni_Bolivia,-20.2,-67.4,31.0,40.0,0.775
val006_Garmish_Zugspitze_Germany,47.467,11.063,8.0,24.0,0.3333333333333333
val007_Reims_France,49.294685,4.06058,20.0,44.0,0.45454545454545453
val_AireSurlAdour_France,43.7,0.2623,49.0,108.0,0.4537037037037037
val009_LIRF_Colorado,40.447842,-104.636681,2.0,6.0,0.3333333333333333
val_el_alto_bolivia,-16.4799,-68.1857,11.0,19.0,0.5789473684210527
val_toledo_bolivia,-18.18,-67.4,15.0,16.0,0.9375
val012_CAO_Colorado,39.922722,-103.972275,2.0,5.0,0.4
v257040_Ambrym,-16.25,168.12,14.0,48.0,0.2916666666666667
v341090_Popocatepetl,19.023,-98.62200000000001,24.0,32.0,0.75
v211060_Etna,37.73,15.0,111.0,152.0,0.7302631578947368
v263250_Merapi,-7.56,110.44,43.0,149.0,0.28859060402684567
v332010_Kilauea_Hawaii,19.42,-155.29,99.0,137.0,0.7226277372262774
v211040_Stromboli,38.78782,15.214823,6.0,17.0,0.35294117647058826
v257030_Aoba_Ambae,-15.4,167.83,4.0,17.0,0.23529411764705882
v357120_Villarrica,-39.42,-71.93,113.0,221.0,0.5113122171945701
v332020_Mauna_Loa_Hawaii,19.48,-155.61,25.0,28.0,0.8928571428571429
v252120_Ulawun,-5.05,151.33,17.0,135.0,0.1259259259259259
v273030_Mayon,13.26,13.26,48.0,75.0,0.64
v345070_Turrialba,10.025,-83.76700000000001,31.0,105.0,0.29523809523809524
v233020_Piton_de_la_Fournaise_Reunion,-21.231,55.713,14.0,31.0,0.45161290322580644
v282110_Aso,32.88,131.11,0.0,1.0,0.0
v342090_Fuego,14.47,-90.88,64.0,133.0,0.48120300751879697
v252140_Rabaul_Tarvurvur,-4.271,152.203,7.0,47.0,0.14893617021276595
v354006_Sabancaya,-15.79516732,-71.85967790000001,114.0,139.0,0.8201438848920863
v282080_Sakurajima,31.585,130.657,14.0,33.0,0.42424242424242425
v273070_Taal,14.008,120.994,19.0,52.0,0.36538461538461536
v223030_Nyiragongo,-1.52,29.25,33.0,115.0,0.28695652173913044
v262000_Krakatau_Anak_Krakatau,-6.1,105.42,3.0,30.0,0.1
v323150_Mammoth_Mountain_LVC,37.631,-119.032,6.0,6.0,1.0
v241040_White_Island,-37.52019052,177.1806283,10.0,28.0,0.35714285714285715
v257100_Yasur,-19.532,169.447,7.0,27.0,0.25925925925925924
v2110010_Campi_Flegrei_and_Pisciarelli,40.827,14.139,23.0,39.0,0.5897435897435898
v354020_Ubinas,-16.34,-70.9,43.0,52.0,0.8269230769230769
v251020_Manam,-4.08,145.04,2.0,31.0,0.06451612903225806
v351020_Nevado_del_Ruiz,4.895,-75.322,11.0,42.0,0.2619047619047619
v344100_Masaya,11.98,-86.16,22.0,50.0,0.44
v263310_Bromo,-7.94,112.95,8.0,35.0,0.22857142857142856
v264020_Agung,-8.34,115.51,37.0,120.0,0.30833333333333335
v211050_Vulcano,38.404,14.962,5.0,14.0,0.35714285714285715
v222120_Oldoinyo_Lengai,-2.764,35.914,11.0,17.0,0.6470588235294118
v345040_Poas,10.2,-84.23299999999999,1.0,1.0,1.0
v241100_Ruapehu,-39.28,175.57,47.0,86.0,0.5465116279069767
v325010_Yellowstone,44.4,-110.7,62.0,100.0,0.62
v353010_Fernandina_Galapagos,-0.37,-91.55,22.0,45.0,0.4888888888888889
v221080_Erta_Ale,13.6,40.67,68.0,101.0,0.6732673267326733
v268010_Dukono,1.68,127.88,18.0,163.0,0.11042944785276074
v357090_Copahue,-37.86,-71.16,61.0,84.0,0.7261904761904762
v342110_Pacaya,14.382,-90.601,17.0,27.0,0.6296296296296297
v332010_East_Rift_Zone_Hawaii,19.275,-154.91,8.0,13.0,0.6153846153846154
v283110_Asama,36.4,138.53,7.0,13.0,0.5384615384615384
v342030_Santiaguito_Santa_Maria,14.757,-91.552,15.0,32.0,0.46875
v305060_Changbaishan_CN_Baekdusan_Paekdusan_NK,41.98,128.08,47.0,92.0,0.5108695652173914
v224010_Mt._Cameroon,4.211,9.175,5.0,126.0,0.03968253968253968
v353050_Sierra_Negra,-0.83,-91.17,59.0,120.0,0.49166666666666664
v223020_Nyamuragira,-1.408,29.2,6.0,27.0,0.2222222222222222
v224030_Oku_Volcanic_Field_Lake_Nyos,6.437,10.298,16.0,80.0,0.2
v263280_Kelut,-7.93,112.31,5.0,18.0,0.2777777777777778
v255020_Bagana,-6.09,155.23,2.0,20.0,0.1
v344090_Momotombo,12.423,-86.539,10.0,26.0,0.38461538461538464
v282030_Suwanosejima_Marianas,29.635,129.716,4.0,33.0,0.12121212121212122
v282060_Satsuma-Iwojima_Kikai,30.789,130.308,1.0,5.0,0.2
v221101_Nabro,13.37,41.7,46.0,61.0,0.7540983606557377
v261080_Sinabung,3.17,98.391,17.0,139.0,0.1223021582733813
v263300_Semeru,-8.107999999999999,112.922,0.0,0.0,0.0
v261170_Kerinci,-1.7,101.26,7.0,41.0,0.17073170731707318
v266100_Lokon-Empung_Sulawesi,1.36,124.79,2.0,14.0,0.14285714285714285
v354010_Misti,-16.294,-71.40899999999999,13.0,18.0,0.7222222222222222
v351110_Chiles-Cerro_Negro,0.826,-77.964,10.0,58.0,0.1724137931034483
v266030_Soputan,1.113,124.734,20.0,116.0,0.1724137931034483
v284040_Miyake-jima_Marianas,34.094,139.526,4.0,20.0,0.2
v360050_Soufriere_Hills_Montserrat,16.72,-62.18,18.0,35.0,0.5142857142857142
v267020_Karangetan,2.78,125.41,13.0,40.0,0.325
v351050_Nevado_del_Huila,2.917,-76.03399999999999,8.0,75.0,0.10666666666666667
v263350_Kawah_Ijen_Ijen,-8.06,114.24,7.0,13.0,0.5384615384615384
v311290_Okmok,53.43,-168.13,0.0,0.0,0.0
v252010_Langila,-5.53,148.42,5.0,47.0,0.10638297872340426
v351080_Galeras,1.2,-77.39,4.0,34.0,0.11764705882352941
v360101_Morne_Watt_Dominica_Island,15.31,-61.31,11.0,29.0,0.3793103448275862
v343020_Santa_Ana,13.853,-89.63,13.0,28.0,0.4642857142857143
v264270_Sirung_Pantar,-8.509004591,124.1274858,4.0,35.0,0.11428571428571428
v321050_Mount_St._Helens,46.2,-122.18,7.0,11.0,0.6363636363636364
v283030_Fuji-san,35.36,138.73,2.0,3.0,0.6666666666666666
v355838_Uturuncu,-22.27,-67.18,135.0,145.0,0.9310344827586207
v344020_San_Cristobal,12.702,-87.00399999999999,14.0,29.0,0.4827586206896552
v355100_Lascar,-23.37,-67.73,53.0,57.0,0.9298245614035088
v355120_Lastarria,-25.17,-68.5,81.0,85.0,0.9529411764705882
v357061_Laguna_del_Maule,-36.06,-70.49,61.0,74.0,0.8243243243243243
v300070_Gorely,52.56,158.03,0.0,0.0,0.0
v300060_Mutnovsky,52.449,158.196,0.0,1.0,0.0
v282090_Shinmoedake_Kirishimayama,31.911,130.882,1.0,4.0,0.25
v283040_Ontake-san_Nagoya,35.893,137.48,0.0,1.0,0.0
v284010_Izu-Oshima,34.72,139.39,0.0,2.0,0.0
v271011_Parker,6.113,124.892,19.0,94.0,0.20212765957446807
v352010_Reventador,-0.077,-77.656,1.0,6.0,0.16666666666666666
v352006_Cayambe,0.029,-77.986,2.0,12.0,0.16666666666666666
v284120_Ioto_Iwo-Jima,24.75,141.29,17.0,50.0,0.34
v351110_Cerro_Negro_de_Mayasquer,0.8170000000000001,-77.936,0.0,0.0,0.0
v358020_Calbuco,-41.33,-72.61,72.0,184.0,0.391304347826087
v351040_Cerro_Machin,4.487,-75.389,0.0,4.0,0.0
v358041_Chaiten,-42.833,-72.646,44.0,138.0,0.3188405797101449
v345020_Rincon_de_la_Vieja,10.83,-85.324,2.0,2.0,1.0
